{
  "origin": "YBBN",
  "destination": "YCOM",
  "route": "DCT BN H91 SANAD W786 OLTIN H201 TESAT V169 PEGSU V20 COM DCT",
  "departure": {
    "name": "YBBN",
    "lat": -27.384167,
    "lon": 153.1175,
    "altitude": 15,
    "elapsed_time": "00:00",
    "time_seconds": 0,
    "stage": "DEP",
    "type": "airport"
  },
  "waypoints": [
    {
      "name": "BN",
      "lat": -27.366083,
      "lon": 153.139222,
      "altitude": 5100,
      "elapsed_time": "01:39",
      "time_seconds": 99,
      "stage": "CLB",
      "type": "vor"
    },
    {
      "name": "SANEG",
      "lat": -27.817833,
      "lon": 153.043972,
      "altitude": 19800,
      "elapsed_time": "06:57",
      "time_seconds": 417,
      "stage": "CLB",
      "type": "wpt"
    },
    {
      "name": "HUUGO",
      "lat": -28.089806,
      "lon": 152.924778,
      "altitude": 25300,
      "elapsed_time": "09:58",
      "time_seconds": 598,
      "stage": "CLB",
      "type": "wpt"
    },
    {
      "name": "APAGI",
      "lat": -28.848889,
      "lon": 152.585306,
      "altitude": 34100,
      "elapsed_time": "16:44",
      "time_seconds": 1004,
      "stage": "CLB",
      "type": "wpt"
    },
    {
      "name": "TOC",
      "lat": -29.2772,
      "lon": 152.329883,
      "altitude": 38000,
      "elapsed_time": "21:01",
      "time_seconds": 1261,
      "stage": "CLB",
      "type": "ltlg"
    },
    {
      "name": "CLIFF",
      "lat": -29.700944,
      "lon": 152.074778,
      "altitude": 38000,
      "elapsed_time": "25:11",
      "time_seconds": 1511,
      "stage": "CRZ",
      "type": "wpt"
    },
    {
      "name": "ADMAR",
      "lat": -30.322778,
      "lon": 151.911861,
      "altitude": 38000,
      "elapsed_time": "30:19",
      "time_seconds": 1819,
      "stage": "CRZ",
      "type": "wpt"
    },
    {
      "name": "SANAD",
      "lat": -31.386389,
      "lon": 151.412389,
      "altitude": 38000,
      "elapsed_time": "40:11",
      "time_seconds": 2411,
      "stage": "CRZ",
      "type": "wpt"
    },
    {
      "name": "EKIBI",
      "lat": -32.006,
      "lon": 151.217333,
      "altitude": 20000,
      "elapsed_time": "45:53",
      "time_seconds": 2753,
      "stage": "CRZ",
      "type": "wpt"
    },
    {
      "name": "OLTIN",
      "lat": -32.552139,
      "lon": 151.2575,
      "altitude": 19000,
      "elapsed_time": "51:04",
      "time_seconds": 3064,
      "stage": "CRZ",
      "type": "wpt"
    },
    {
      "name": "MONDO",
      "lat": -32.943389,
      "lon": 151.236417,
      "altitude": 19000,
      "elapsed_time": "54:51",
      "time_seconds": 3291,
      "stage": "CRZ",
      "type": "wpt"
    },
    {
      "name": "LOWEP",
      "lat": -33.068783,
      "lon": 151.229622,
      "altitude": 19000,
      "elapsed_time": "56:06",
      "time_seconds": 3366,
      "stage": "CRZ",
      "type": "wpt"
    },
    {
      "name": "YAKKA",
      "lat": -33.192333,
      "lon": 151.222917,
      "altitude": 19000,
      "elapsed_time": "57:12",
      "time_seconds": 3432,
      "stage": "CRZ",
      "type": "wpt"
    },
    {
      "name": "MEPIL",
      "lat": -33.402722,
      "lon": 151.211417,
      "altitude": 19000,
      "elapsed_time": "59:15",
      "time_seconds": 3555,
      "stage": "CRZ",
      "type": "wpt"
    },
    {
      "name": "TESAT",
      "lat": -33.943806,
      "lon": 151.182583,
      "altitude": 19000,
      "elapsed_time": "64:24",
      "time_seconds": 3864,
      "stage": "CRZ",
      "type": "wpt"
    },
    {
      "name": "PEGSU",
      "lat": -34.330528,
      "lon": 150.785639,
      "altitude": 20000,
      "elapsed_time": "69:58",
      "time_seconds": 4198,
      "stage": "CRZ",
      "type": "wpt"
    },
    {
      "name": "ATGOD",
      "lat": -35.178167,
      "lon": 150.033917,
      "altitude": 20000,
      "elapsed_time": "80:24",
      "time_seconds": 4824,
      "stage": "CRZ",
      "type": "wpt"
    },
    {
      "name": "TOD",
      "lat": -35.499989,
      "lon": 149.743265,
      "altitude": 20000,
      "elapsed_time": "84:24",
      "time_seconds": 5064,
      "stage": "CRZ",
      "type": "ltlg"
    },
    {
      "name": "COM",
      "lat": -36.353786,
      "lon": 148.957519,
      "altitude": 5600,
      "elapsed_time": "97:10",
      "time_seconds": 5830,
      "stage": "DSC",
      "type": "ndb"
    },
    {
      "name": "YCOM",
      "lat": -36.300556,
      "lon": 148.973889,
      "altitude": 5600,
      "elapsed_time": "106:26",
      "time_seconds": 6386,
      "stage": "DSC",
      "type": "apt"
    }
  ],
  "arrival": {
    "name": "YCOM",
    "lat": -36.300556,
    "lon": 148.973889,
    "altitude": 3106,
    "elapsed_time": "00:00",
    "time_seconds": 0,
    "stage": "DEP",
    "type": "airport"
  },
  "all_waypoints": [
    {
      "name": "YBBN",
      "lat": -27.384167,
      "lon": 153.1175,
      "altitude": 15,
      "elapsed_time": "00:00",
      "time_seconds": 0,
      "stage": "DEP",
      "type": "airport"
    },
    {
      "name": "BN",
      "lat": -27.366083,
      "lon": 153.139222,
      "altitude": 5100,
      "elapsed_time": "01:39",
      "time_seconds": 99,
      "stage": "CLB",
      "type": "vor"
    },
    {
      "name": "SANEG",
      "lat": -27.817833,
      "lon": 153.043972,
      "altitude": 19800,
      "elapsed_time": "06:57",
      "time_seconds": 417,
      "stage": "CLB",
      "type": "wpt"
    },
    {
      "name": "HUUGO",
      "lat": -28.089806,
      "lon": 152.924778,
      "altitude": 25300,
      "elapsed_time": "09:58",
      "time_seconds": 598,
      "stage": "CLB",
      "type": "wpt"
    },
    {
      "name": "APAGI",
      "lat": -28.848889,
      "lon": 152.585306,
      "altitude": 34100,
      "elapsed_time": "16:44",
      "time_seconds": 1004,
      "stage": "CLB",
      "type": "wpt"
    },
    {
      "name": "TOC",
      "lat": -29.2772,
      "lon": 152.329883,
      "altitude": 38000,
      "elapsed_time": "21:01",
      "time_seconds": 1261,
      "stage": "CLB",
      "type": "ltlg"
    },
    {
      "name": "CLIFF",
      "lat": -29.700944,
      "lon": 152.074778,
      "altitude": 38000,
      "elapsed_time": "25:11",
      "time_seconds": 1511,
      "stage": "CRZ",
      "type": "wpt"
    },
    {
      "name": "ADMAR",
      "lat": -30.322778,
      "lon": 151.911861,
      "altitude": 38000,
      "elapsed_time": "30:19",
      "time_seconds": 1819,
      "stage": "CRZ",
      "type": "wpt"
    },
    {
      "name": "SANAD",
      "lat": -31.386389,
      "lon": 151.412389,
      "altitude": 38000,
      "elapsed_time": "40:11",
      "time_seconds": 2411,
      "stage": "CRZ",
      "type": "wpt"
    },
    {
      "name": "EKIBI",
      "lat": -32.006,
      "lon": 151.217333,
      "altitude": 20000,
      "elapsed_time": "45:53",
      "time_seconds": 2753,
      "stage": "CRZ",
      "type": "wpt"
    },
    {
      "name": "OLTIN",
      "lat": -32.552139,
      "lon": 151.2575,
      "altitude": 19000,
      "elapsed_time": "51:04",
      "time_seconds": 3064,
      "stage": "CRZ",
      "type": "wpt"
    },
    {
      "name": "MONDO",
      "lat": -32.943389,
      "lon": 151.236417,
      "altitude": 19000,
      "elapsed_time": "54:51",
      "time_seconds": 3291,
      "stage": "CRZ",
      "type": "wpt"
    },
    {
      "name": "LOWEP",
      "lat": -33.068783,
      "lon": 151.229622,
      "altitude": 19000,
      "elapsed_time": "56:06",
      "time_seconds": 3366,
      "stage": "CRZ",
      "type": "wpt"
    },
    {
      "name": "YAKKA",
      "lat": -33.192333,
      "lon": 151.222917,
      "altitude": 19000,
      "elapsed_time": "57:12",
      "time_seconds": 3432,
      "stage": "CRZ",
      "type": "wpt"
    },
    {
      "name": "MEPIL",
      "lat": -33.402722,
      "lon": 151.211417,
      "altitude": 19000,
      "elapsed_time": "59:15",
      "time_seconds": 3555,
      "stage": "CRZ",
      "type": "wpt"
    },
    {
      "name": "TESAT",
      "lat": -33.943806,
      "lon": 151.182583,
      "altitude": 19000,
      "elapsed_time": "64:24",
      "time_seconds": 3864,
      "stage": "CRZ",
      "type": "wpt"
    },
    {
      "name": "PEGSU",
      "lat": -34.330528,
      "lon": 150.785639,
      "altitude": 20000,
      "elapsed_time": "69:58",
      "time_seconds": 4198,
      "stage": "CRZ",
      "type": "wpt"
    },
    {
      "name": "ATGOD",
      "lat": -35.178167,
      "lon": 150.033917,
      "altitude": 20000,
      "elapsed_time": "80:24",
      "time_seconds": 4824,
      "stage": "CRZ",
      "type": "wpt"
    },
    {
      "name": "TOD",
      "lat": -35.499989,
      "lon": 149.743265,
      "altitude": 20000,
      "elapsed_time": "84:24",
      "time_seconds": 5064,
      "stage": "CRZ",
      "type": "ltlg"
    },
    {
      "name": "COM",
      "lat": -36.353786,
      "lon": 148.957519,
      "altitude": 5600,
      "elapsed_time": "97:10",
      "time_seconds": 5830,
      "stage": "DSC",
      "type": "ndb"
    },
    {
      "name": "YCOM",
      "lat": -36.300556,
      "lon": 148.973889,
      "altitude": 5600,
      "elapsed_time": "106:26",
      "time_seconds": 6386,
      "stage": "DSC",
      "type": "apt"
    },
    {
      "name": "YCOM",
      "lat": -36.300556,
      "lon": 148.973889,
      "altitude": 3106,
      "elapsed_time": "00:00",
      "time_seconds": 0,
      "stage": "DEP",
      "type": "airport"
    }
  ]
}