{
  "origin": "YMRY",
  "destination": "YMAY",
  "route": "DCT COM DCT",
  "departure": {
    "name": "YMRY",
    "lat": -35.8975,
    "lon": 150.145556,
    "altitude": 19,
    "elapsed_time": "00:00",
    "time_seconds": 0,
    "stage": "DEP",
    "type": "airport"
  },
  "waypoints": [
    {
      "name": "TOC",
      "lat": -36.077702,
      "lon": 149.681643,
      "altitude": 10000,
      "elapsed_time": "18:32",
      "time_seconds": 1112,
      "stage": "CLB",
      "type": "ltlg"
    },
    {
      "name": "COM",
      "lat": -36.353786,
      "lon": 148.957519,
      "altitude": 10000,
      "elapsed_time": "40:24",
      "time_seconds": 2424,
      "stage": "CRZ",
      "type": "ndb"
    },
    {
      "name": "TOD",
      "lat": -36.189174,
      "lon": 147.776838,
      "altitude": 10000,
      "elapsed_time": "73:13",
      "time_seconds": 4393,
      "stage": "CRZ",
      "type": "ltlg"
    },
    {
      "name": "YMAY",
      "lat": -36.067778,
      "lon": 146.958056,
      "altitude": 3000,
      "elapsed_time": "94:18",
      "time_seconds": 5658,
      "stage": "DSC",
      "type": "apt"
    }
  ],
  "arrival": {
    "name": "YMAY",
    "lat": -36.067778,
    "lon": 146.958056,
    "altitude": 539,
    "elapsed_time": "00:00",
    "time_seconds": 0,
    "stage": "DEP",
    "type": "airport"
  },
  "all_waypoints": [
    {
      "name": "YMRY",
      "lat": -35.8975,
      "lon": 150.145556,
      "altitude": 19,
      "elapsed_time": "00:00",
      "time_seconds": 0,
      "stage": "DEP",
      "type": "airport"
    },
    {
      "name": "TOC",
      "lat": -36.077702,
      "lon": 149.681643,
      "altitude": 10000,
      "elapsed_time": "18:32",
      "time_seconds": 1112,
      "stage": "CLB",
      "type": "ltlg"
    },
    {
      "name": "COM",
      "lat": -36.353786,
      "lon": 148.957519,
      "altitude": 10000,
      "elapsed_time": "40:24",
      "time_seconds": 2424,
      "stage": "CRZ",
      "type": "ndb"
    },
    {
      "name": "TOD",
      "lat": -36.189174,
      "lon": 147.776838,
      "altitude": 10000,
      "elapsed_time": "73:13",
      "time_seconds": 4393,
      "stage": "CRZ",
      "type": "ltlg"
    },
    {
      "name": "YMAY",
      "lat": -36.067778,
      "lon": 146.958056,
      "altitude": 3000,
      "elapsed_time": "94:18",
      "time_seconds": 5658,
      "stage": "DSC",
      "type": "apt"
    },
    {
      "name": "YMAY",
      "lat": -36.067778,
      "lon": 146.958056,
      "altitude": 539,
      "elapsed_time": "00:00",
      "time_seconds": 0,
      "stage": "DEP",
      "type": "airport"
    }
  ]
}